site;lon;lat
Soetwater;18.3375;-34.1764
Olifantsbos;18.3755;-34.2564
Buffelsbaai;18.470217;-34.332867
Miller's Point;18.47726;-34.23031
Kalk Bay;18.4582;-34.1231
Oudekraal;18.346194;-33.984972
Scarborough;18.3654;-34.23871
Hout Bay;18.33505;-34.06226
Kommetjie;18.31648;-34.13173
